City_ID,City,Lat,Lng,Max Temp,Humidity,Cloudiness,Wind Speed,Country,Date
0,upernavik,72.79,-56.15,29.05,88,50,7.25,GL,1600517975
1,yar-sale,66.83,70.83,47.86,62,63,3.42,RU,1600517975
2,mataura,-46.19,168.86,46.0,88,22,3.0,NZ,1600517976
3,qaqortoq,60.72,-46.03,39.2,55,75,5.82,GL,1600517976
4,la ronge,55.1,-105.28,41.0,93,5,4.68,CA,1600517976
5,inhambane,-23.86,35.38,82.4,69,0,11.41,MZ,1600517976
6,rikitea,-23.12,-134.97,72.28,83,54,21.23,PF,1600517976
7,qaanaaq,77.48,-69.36,13.26,77,0,9.42,GL,1600517724
8,byron bay,-28.65,153.62,63.0,88,40,6.24,AU,1600517757
9,nanortalik,60.14,-45.24,39.56,88,79,10.6,GL,1600517977
10,kapaa,22.08,-159.32,80.6,78,1,16.11,US,1600517977
11,los andes,-32.83,-70.6,61.0,81,0,2.24,CL,1600517977
12,atuona,-9.8,-139.03,77.13,72,10,18.16,PF,1600517977
13,yulara,-25.24,130.99,71.6,12,0,5.82,AU,1600517977
14,shahrud,36.42,54.98,84.69,14,0,1.34,IR,1600517977
15,abha,18.22,42.51,86.0,9,20,16.11,SA,1600517971
16,dali,25.7,100.18,63.75,80,69,3.24,CN,1600517978
17,nikolskoye,59.7,30.79,55.4,58,40,17.9,RU,1600517978
18,bredasdorp,-34.53,20.04,66.2,45,39,4.7,ZA,1600517978
19,honiara,-9.43,159.95,75.2,100,40,3.36,SB,1600517978
20,hilo,19.73,-155.09,73.4,69,75,6.93,US,1600517962
21,chapais,49.78,-74.85,32.0,96,90,3.36,CA,1600517862
22,port macquarie,-31.43,152.92,64.99,88,100,1.99,AU,1600517729
23,puerto ayora,-0.74,-90.35,65.52,90,99,8.32,EC,1600517978
24,mehamn,71.04,27.85,45.32,78,95,27.76,NO,1600517978
25,vysokogornyy,50.12,139.15,42.66,89,99,5.82,RU,1600517979
26,moose factory,51.26,-80.61,28.4,100,1,3.36,CA,1600517979
27,punta arenas,-53.15,-70.92,41.0,73,74,25.28,CL,1600517979
28,venado tuerto,-33.75,-61.97,54.0,50,0,23.0,AR,1600517979
29,isangel,-19.55,169.27,70.16,73,32,13.09,VU,1600517979
30,esperance,-33.87,121.9,53.6,93,90,19.46,AU,1600517979
31,teya,60.38,92.63,45.91,85,100,8.46,RU,1600517979
32,longyearbyen,78.22,15.64,39.2,91,75,5.82,SJ,1600517980
33,port elizabeth,-33.92,25.57,66.2,52,20,10.29,ZA,1600517967
34,pacific grove,36.62,-121.92,59.0,92,0,3.83,US,1600517980
35,carnarvon,-24.87,113.63,68.0,68,90,23.04,AU,1600517931
36,coquimbo,-29.95,-71.34,51.8,100,90,3.36,CL,1600517863
37,normandin,48.83,-72.53,39.2,80,75,8.05,CA,1600517980
38,bluff,-46.6,168.33,46.0,88,7,3.0,NZ,1600517980
39,albany,42.6,-73.97,44.01,85,0,1.01,US,1600517980
40,majholi,23.5,79.92,84.2,74,75,6.93,IN,1600517981
41,narsaq,60.92,-46.05,39.2,55,75,5.82,GL,1600517981
42,port alfred,-33.59,26.89,65.82,61,35,11.21,ZA,1600517981
43,belmonte,-15.86,-38.88,75.2,73,40,4.7,BR,1600517981
44,cidreira,-30.18,-50.21,65.52,82,1,8.37,BR,1600517981
45,yellowknife,62.46,-114.35,46.0,100,20,8.05,CA,1600517981
46,wasilla,61.58,-149.44,44.6,81,75,3.36,US,1600517981
47,mahebourg,-20.41,57.7,75.2,57,75,17.22,MU,1600517982
48,kudahuvadhoo,2.67,72.89,83.48,77,75,11.03,MV,1600517982
49,hayden,47.77,-116.79,57.99,82,1,4.7,US,1600517982
50,tuktoyaktuk,69.45,-133.04,44.26,79,100,14.34,CA,1600517982
51,katsuura,35.13,140.3,75.0,81,100,1.01,JP,1600517982
52,saint george,37.1,-113.58,75.2,17,1,11.41,US,1600517982
53,lydenburg,-25.1,30.46,86.0,2,21,1.99,ZA,1600517982
54,dalby,-27.18,151.27,60.01,81,100,4.0,AU,1600517983
55,nago,26.59,127.98,82.4,88,1,4.7,JP,1600517983
56,revda,56.8,59.93,62.6,45,100,8.95,RU,1600517983
57,williston,48.15,-103.62,51.01,87,83,8.28,US,1600517983
58,avarua,-21.21,-159.78,75.2,94,62,17.22,CK,1600517983
59,vaini,-21.2,-175.2,71.6,88,75,6.93,TO,1600517983
60,sandpoint,48.28,-116.55,59.0,77,40,3.36,US,1600517983
61,new norfolk,-42.78,147.06,55.0,83,21,2.59,AU,1600517983
62,khatanga,71.97,102.5,49.28,60,63,3.87,RU,1600517984
63,kenai,60.55,-151.26,48.99,70,1,14.99,US,1600517984
64,warmbad,-28.45,18.73,84.58,13,0,4.05,NA,1600517984
65,ilulissat,69.22,-51.1,33.8,86,90,11.41,GL,1600517984
66,pochutla,15.74,-96.47,73.99,86,100,3.2,MX,1600517984
67,maragogi,-9.01,-35.22,78.26,75,7,9.19,BR,1600517984
68,lorengau,-2.02,147.27,81.61,78,22,8.01,PG,1600517985
69,shahr-e kord,32.33,50.86,84.2,7,0,4.7,IR,1600517985
70,zunheboto,25.97,94.52,69.96,92,52,1.19,IN,1600517985
71,geraldton,-28.77,114.6,60.8,55,40,17.22,AU,1600517985
72,piacabucu,-10.41,-36.43,79.75,66,4,7.0,BR,1600517985
73,lompoc,34.64,-120.46,55.4,100,90,6.93,US,1600517985
74,bintulu,3.17,113.03,82.4,94,40,5.82,MY,1600517985
75,iroquois falls,48.77,-80.68,30.2,92,75,4.7,CA,1600517985
76,grand gaube,-20.01,57.66,71.01,76,48,11.99,MU,1600517986
77,muli,2.92,73.57,83.07,77,83,12.08,MV,1600517986
78,codrington,-38.27,141.97,59.99,89,100,17.34,AU,1600517986
79,meybod,32.25,54.02,91.4,11,0,11.41,IR,1600517986
80,cabo san lucas,22.89,-109.91,80.01,87,29,4.0,MX,1600517986
81,hermanus,-34.42,19.23,64.99,60,35,5.01,ZA,1600517986
82,flinders,-34.58,150.86,66.99,89,100,4.0,AU,1600517986
83,dunedin,-45.87,170.5,46.0,84,0,1.99,NZ,1600517987
84,ushuaia,-54.8,-68.3,33.8,93,90,27.51,AR,1600517987
85,kandrian,-6.22,149.55,75.58,87,100,2.21,PG,1600517987
86,thompson,55.74,-97.86,39.2,93,40,3.36,CA,1600517987
87,kaitangata,-46.28,169.85,44.01,77,7,1.99,NZ,1600517987
88,bam,29.11,58.36,87.55,12,0,14.09,IR,1600517987
89,sal rei,16.18,-22.92,86.0,62,75,11.41,CV,1600517987
90,namibe,-15.2,12.15,66.2,77,75,11.41,AO,1600517987
91,hambantota,6.12,81.12,87.8,70,75,18.34,LK,1600517988
92,hvide sande,56.0,8.13,57.99,77,99,1.01,DK,1600517988
93,georgetown,5.41,100.34,86.0,70,20,9.17,MY,1600517705
94,fortuna,40.6,-124.16,57.0,100,90,6.93,US,1600517988
95,pisco,-13.7,-76.22,57.99,87,40,4.7,PE,1600517988
96,jamestown,42.1,-79.24,39.2,80,1,2.98,US,1600517824
97,hithadhoo,-0.6,73.08,83.48,72,1,11.9,MV,1600517799
98,riyadh,24.69,46.72,102.2,11,0,9.17,SA,1600517858
99,busselton,-33.65,115.33,46.0,98,29,20.62,AU,1600517988
100,mar del plata,-38.0,-57.56,50.0,93,40,5.82,AR,1600517847
101,rtishchevo,52.26,43.79,49.84,72,68,17.05,RU,1600517989
102,sangueya,10.7,-14.37,84.56,74,66,6.46,GN,1600517989
103,sisimiut,66.94,-53.67,37.11,77,100,5.41,GL,1600517989
104,ahipara,-35.17,173.17,51.15,83,15,6.08,NZ,1600517989
105,leshukonskoye,64.9,45.76,44.92,63,98,3.51,RU,1600517989
106,grenaa,56.42,10.88,64.0,93,50,1.12,DK,1600517989
107,hobart,-42.88,147.33,57.2,76,20,8.05,AU,1600517734
108,tiarei,-17.53,-149.33,75.2,78,20,3.36,PF,1600517989
109,ostrovnoy,68.05,39.51,47.91,76,100,10.63,RU,1600517990
110,san patricio,19.22,-104.7,77.54,85,96,3.62,MX,1600517990
111,cabedelo,-6.98,-34.83,80.6,69,75,11.41,BR,1600517913
112,castro,-24.79,-50.01,70.83,54,99,7.05,BR,1600517990
113,kodiak,57.79,-152.41,39.2,93,90,4.7,US,1600517990
114,ebebiyin,2.15,11.34,78.8,78,75,3.53,GQ,1600517785
115,salalah,17.02,54.09,86.0,70,20,14.99,OM,1600517990
116,ponta do sol,32.67,-17.1,75.2,69,20,5.82,PT,1600517990
117,chuy,-33.7,-53.46,54.39,62,53,9.04,UY,1600517990
118,mezen,65.85,44.24,40.35,90,100,5.61,RU,1600517991
119,torbay,47.67,-52.73,53.01,93,90,17.22,CA,1600517991
120,sur,22.57,59.53,90.95,46,0,11.45,OM,1600517991
121,los llanos de aridane,28.66,-17.92,80.6,57,20,9.17,ES,1600517991
122,paraiso,9.84,-83.87,64.4,100,80,5.82,CR,1600517718
123,petropavlovsk-kamchatskiy,53.05,158.65,46.4,93,75,6.71,RU,1600517991
124,dikson,73.51,80.55,41.86,97,94,11.05,RU,1600517991
125,hasaki,35.73,140.83,73.4,83,75,10.29,JP,1600517992
126,ribeira grande,38.52,-28.7,73.4,73,20,18.34,PT,1600517992
127,saint-philippe,-21.36,55.77,77.0,53,27,12.75,RE,1600517992
128,saldanha,-33.01,17.94,66.2,52,0,12.75,ZA,1600517992
129,oktyabrskiy,54.48,53.47,55.42,60,100,11.81,RU,1600517992
130,portland,45.52,-122.68,59.0,93,41,2.59,US,1600517855
131,salinas,36.68,-121.66,57.99,100,90,4.7,US,1600517765
132,saint-augustin,51.23,-58.65,43.5,59,1,12.12,CA,1600517992
133,debica,50.05,21.41,64.4,48,78,4.7,PL,1600517992
134,sabaudia,41.3,13.03,87.01,45,54,1.99,IT,1600517993
135,hofn,64.25,-15.21,50.18,67,64,30.71,IS,1600517993
136,clyde river,70.47,-68.59,30.2,80,90,4.7,CA,1600517993
137,barrow,71.29,-156.79,33.33,96,100,12.73,US,1600517993
138,ancud,-41.87,-73.82,42.01,85,0,5.68,CL,1600517993
139,hamilton,39.18,-84.53,46.0,87,1,4.7,US,1600517903
140,guerrero negro,27.98,-114.06,74.66,63,0,2.17,MX,1600517994
141,kavieng,-2.57,150.8,82.2,74,77,7.52,PG,1600517994
142,vostok,46.49,135.88,45.27,100,58,1.41,RU,1600517994
143,saskylakh,71.92,114.08,51.15,65,0,12.26,RU,1600517994
144,channel-port aux basques,47.57,-59.14,51.71,64,57,11.63,CA,1600517994
145,kpandu,7.0,0.29,75.63,88,100,5.14,GH,1600517994
146,hoquiam,46.98,-123.89,60.01,87,90,5.39,US,1600517994
147,bobrovytsya,50.75,31.38,69.01,37,13,4.47,UA,1600517995
148,coahuayana,18.73,-103.68,76.19,89,100,3.6,MX,1600517995
149,cape town,-33.93,18.42,68.0,55,18,9.17,ZA,1600517700
150,chifeng,42.27,118.96,55.2,50,0,6.15,CN,1600517995
151,lagoa,39.05,-27.98,70.29,77,28,23.09,PT,1600517995
152,cherskiy,68.75,161.3,31.14,95,8,7.25,RU,1600517995
153,atambua,-9.11,124.89,74.44,86,78,3.06,ID,1600517995
154,sakakah,29.97,40.21,105.8,9,0,5.82,SA,1600517996
155,olafsvik,64.89,-23.71,47.08,76,98,38.54,IS,1600517996
156,villacarrillo,38.12,-3.08,73.99,53,13,10.13,ES,1600517996
157,tuatapere,-46.13,167.68,46.0,88,17,3.0,NZ,1600517996
158,ouallam,14.32,2.09,99.41,29,18,14.65,NE,1600517996
159,olinda,-8.01,-34.86,80.6,69,40,8.05,BR,1600517747
160,luderitz,-26.65,15.16,67.71,55,0,24.18,NA,1600517996
161,buin,-33.73,-70.75,61.0,81,0,3.36,CL,1600517996
162,canavieiras,-15.68,-38.95,78.48,67,40,4.97,BR,1600517996
163,tongzi,28.78,105.09,73.94,75,63,4.92,CN,1600517997
164,hovd,48.01,91.64,54.81,40,1,3.0,MN,1600517723
165,aklavik,68.22,-135.01,41.0,80,40,6.31,CA,1600517997
166,norman wells,65.28,-126.83,48.2,87,75,5.82,CA,1600517997
167,verkhoyansk,67.54,133.38,44.94,70,1,1.21,RU,1600517997
168,te anau,-45.42,167.72,38.34,87,7,0.22,NZ,1600517997
169,hami,42.8,93.45,69.26,23,76,20.74,CN,1600517997
170,flin flon,54.77,-101.86,48.2,87,5,5.82,CA,1600517704
171,sorong,-0.88,131.25,82.2,78,81,9.15,ID,1600517965
172,nhulunbuy,-12.23,136.77,77.0,94,40,8.05,AU,1600517998
173,zhanaozen,43.3,52.8,78.66,17,32,11.18,KZ,1600517998
174,bethel,41.37,-73.41,46.0,58,1,4.7,US,1600517998
175,pevek,69.7,170.31,33.4,93,97,11.01,RU,1600517998
176,beringovskiy,63.05,179.32,39.79,70,24,6.98,RU,1600517998
177,sirnak,37.52,42.46,96.8,12,20,5.82,TR,1600517998
178,pedernales,18.04,-71.74,77.0,94,20,1.12,DO,1600517998
179,bengkulu,-3.8,102.27,80.46,81,76,10.45,ID,1600517730
180,saurimo,-9.66,20.39,86.0,42,100,5.82,AO,1600517998
181,provideniya,64.38,-173.3,41.18,73,74,5.01,RU,1600517999
182,iqaluit,63.75,-68.51,32.0,92,90,10.29,CA,1600517999
183,mendi,-6.18,143.65,56.82,98,100,2.24,PG,1600517999
184,avera,33.19,-82.53,66.99,93,1,10.29,US,1600517999
185,nizhniy mamon,50.19,40.51,61.48,44,81,18.54,RU,1600517999
186,zhigansk,66.77,123.37,44.55,68,0,8.66,RU,1600517999
187,colares,38.8,-9.45,71.6,77,90,11.41,PT,1600518000
188,butaritari,3.07,172.79,82.09,76,100,13.24,KI,1600518000
189,ust-nera,64.57,143.2,42.58,73,100,4.81,RU,1600518000
190,awjilah,29.11,21.29,91.47,25,0,11.54,LY,1600518000
191,sire,12.93,5.2,97.47,32,90,10.49,NG,1600518001
192,tigil,57.8,158.67,36.05,84,0,7.36,RU,1600518001
193,acapulco,16.86,-99.89,78.19,80,95,8.25,MX,1600517939
194,bonavista,48.65,-53.11,52.79,91,100,26.49,CA,1600518001
195,port hedland,-20.32,118.57,75.2,78,21,9.17,AU,1600517725
196,kaeo,-35.1,173.78,50.0,3,2,1.99,NZ,1600518001
197,saint-michel-des-saints,46.68,-73.92,33.37,89,1,3.8,CA,1600518002
198,sangin,32.07,64.84,90.43,11,0,12.59,AF,1600518002
199,thinadhoo,0.53,72.93,83.53,74,12,9.28,MV,1600518002
200,richards bay,-28.78,32.04,73.27,62,58,13.56,ZA,1600518002
201,mayo,38.89,-76.51,55.99,66,1,9.17,US,1600518002
202,komsomolskiy,40.43,71.72,66.2,37,48,6.93,UZ,1600518003
203,mahon,39.89,4.27,82.4,74,20,14.99,ES,1600518003
204,wete,-5.06,39.73,82.96,59,10,10.54,TZ,1600518003
205,muisne,0.6,-80.03,74.05,90,100,8.84,EC,1600518003
206,gewane,10.17,40.65,98.15,22,0,2.64,ET,1600518003
207,brooks,50.58,-111.89,56.88,54,95,5.73,CA,1600517704
208,machala,-3.27,-79.97,71.31,87,100,3.04,EC,1600518004
209,norrtalje,59.76,18.7,61.0,47,0,8.05,SE,1600518004
210,nganjuk,-7.61,111.9,80.53,65,44,4.36,ID,1600518004
211,broome,42.25,-75.83,39.2,60,1,9.17,US,1600518005
212,adrar,20.5,-10.07,95.49,32,0,5.06,MR,1600518005
213,anloga,5.79,0.9,86.0,66,20,5.82,GH,1600518006
214,shingu,33.73,135.98,70.32,83,70,3.96,JP,1600518006
215,qasigiannguit,68.82,-51.19,33.8,86,90,11.41,GL,1600518006
216,martapura,-3.42,114.85,84.2,70,75,9.17,ID,1600517848
217,north bend,43.41,-124.22,61.0,100,90,4.61,US,1600517970
218,kon tum,14.35,108.0,72.25,92,98,1.83,VN,1600518007
219,yeppoon,-23.13,150.73,71.6,68,40,6.93,AU,1600518007
220,kharan,28.58,65.42,94.42,10,0,4.7,PK,1600518007
221,usinsk,65.99,57.53,43.27,65,100,8.55,RU,1600518007
222,carnot,4.94,15.87,78.35,85,100,4.0,CF,1600518007
223,lermontovka,47.15,134.34,47.77,95,71,4.72,RU,1600518008
224,tasiilaq,65.61,-37.64,39.2,87,20,13.87,GL,1600518008
225,niceville,30.52,-86.48,75.0,83,40,8.05,US,1600517994
226,sitka,57.05,-135.33,48.2,93,90,3.36,US,1600517815
227,balakhninskiy,58.01,114.28,47.01,67,20,3.33,RU,1600518009
228,srednekolymsk,67.45,153.68,41.18,82,99,12.55,RU,1600518009
229,lebowakgomo,-24.2,29.5,89.6,24,1,5.82,ZA,1600518009
230,port hardy,50.7,-127.42,55.4,100,90,4.7,CA,1600518010
231,tulun,54.56,100.58,46.54,88,96,6.22,RU,1600518010
232,muzaffarnagar,29.47,77.68,90.34,52,11,5.68,IN,1600518010
233,airai,-8.93,125.41,61.65,100,72,2.1,TL,1600518010
234,whitianga,-36.83,175.7,44.01,93,10,4.85,NZ,1600518011
235,grindavik,63.84,-22.43,48.2,81,75,34.45,IS,1600518011
236,nantucket,41.28,-70.1,59.0,54,40,14.99,US,1600518011
237,phalombe,-15.81,35.65,90.23,21,22,1.81,MW,1600518011
238,ambon,-3.7,128.18,77.0,94,75,8.05,ID,1600518011
239,arraial do cabo,-22.97,-42.03,75.2,78,40,6.93,BR,1600518011
240,veraval,20.9,70.37,85.53,76,33,9.57,IN,1600517722
241,xining,36.62,101.77,60.22,58,32,10.27,CN,1600518012
242,campoverde,-8.48,-74.81,73.58,92,90,2.64,PE,1600518012
243,acajutla,13.59,-89.83,69.01,100,35,4.14,SV,1600518012
244,birin,26.89,88.07,69.12,99,28,1.25,NP,1600518012
245,kamenka,51.32,42.77,53.01,69,77,17.02,RU,1600518013
246,linhares,-19.39,-40.07,79.18,60,20,9.33,BR,1600518014
247,colesberg,-30.72,25.1,79.68,13,2,18.57,ZA,1600518014
248,afogados da ingazeira,-7.75,-37.64,79.03,47,34,6.6,BR,1600518014
249,leningradskiy,69.38,178.42,33.17,93,96,9.33,RU,1600518014
250,havre-saint-pierre,50.23,-63.6,39.2,63,90,2.24,CA,1600518014
251,hengyang,26.89,112.61,69.57,89,77,3.98,CN,1600518015
252,pangoa,-12.12,-73.0,68.16,91,98,2.86,PE,1600518015
253,rio cuarto,-33.13,-64.35,46.4,31,0,16.11,AR,1600518015
254,sinnamary,5.38,-52.95,82.51,76,99,11.21,GF,1600518015
255,birjand,32.87,59.22,86.0,2,0,4.7,IR,1600517812
256,faanui,-16.48,-151.75,77.59,80,3,18.39,PF,1600518016
257,evensk,61.95,159.23,41.81,67,93,6.53,RU,1600518016
258,noyabrsk,63.2,75.45,46.83,80,97,9.89,RU,1600518016
259,mount gambier,-37.83,140.77,68.0,64,90,19.46,AU,1600518016
260,malakal,9.53,31.66,90.45,56,83,6.13,SS,1600518017
261,iquique,-20.22,-70.14,59.0,67,90,4.7,CL,1600518017
262,espinosa,-14.93,-42.82,83.71,34,0,5.59,BR,1600518017
263,nome,64.5,-165.41,44.6,81,90,20.8,US,1600518017
264,mecca,21.43,39.83,108.1,14,0,17.76,SA,1600518017
265,ukiah,39.15,-123.21,57.2,82,1,3.06,US,1600517970
266,necochea,-38.55,-58.74,46.0,72,62,8.01,AR,1600518017
267,bambous virieux,-20.34,57.76,75.2,57,75,17.22,MU,1600518018
268,brindisi,40.58,17.67,86.0,37,97,18.34,IT,1600518018
269,comodoro rivadavia,-45.87,-67.5,41.0,41,6,16.11,AR,1600517844
270,severo-kurilsk,50.68,156.12,50.99,92,100,11.86,RU,1600518019
271,villazon,-22.09,-65.59,49.06,54,0,2.98,BO,1600518019
272,cayenne,4.93,-52.33,80.6,88,95,10.78,GF,1600517793
273,port moresby,-9.44,147.18,78.8,88,75,5.82,PG,1600518019
274,portales,34.19,-103.33,53.01,66,1,4.7,US,1600518019
275,karratha,-20.74,116.85,72.68,67,19,16.33,AU,1600517767
276,villa bruzual,9.33,-69.12,76.8,86,15,2.73,VE,1600518019
277,tabou,4.42,-7.35,79.39,75,87,7.65,CI,1600518020
278,price,39.6,-110.81,62.6,21,1,1.68,US,1600517881
279,alofi,-19.06,-169.92,71.6,94,18,12.75,NU,1600518020
280,tevaitoa,-16.78,-151.5,78.66,77,2,18.99,PF,1600518020
281,mana,5.66,-53.78,82.38,74,100,10.42,GF,1600518020
282,raga,8.46,25.68,85.01,65,100,3.85,SS,1600518020
283,dingle,11.0,122.67,78.3,84,6,5.01,PH,1600518021
284,bahia de caraquez,-0.6,-80.42,71.6,88,90,9.17,EC,1600518021
285,itarema,-2.92,-39.92,82.02,68,97,15.35,BR,1600518021
286,belaya gora,68.53,146.42,37.81,84,81,6.2,RU,1600518021
287,port augusta,-32.5,137.77,62.6,88,90,6.93,AU,1600518022
288,libreville,0.39,9.45,82.4,78,75,6.93,GA,1600518022
289,aykhal,66.0,111.5,50.0,43,0,6.71,RU,1600518022
290,fukue,32.69,128.84,74.26,54,100,12.41,JP,1600518022
291,black river,18.03,-77.85,84.2,79,20,2.24,JM,1600518022
292,liling,27.67,113.5,73.4,78,76,2.24,CN,1600518023
293,bilibino,68.05,166.44,28.13,95,87,4.54,RU,1600518023
294,komsomolets,53.75,62.07,61.72,49,100,11.16,KZ,1600518023
295,waingapu,-9.66,120.26,77.0,82,69,1.72,ID,1600518023
296,vestmannaeyjar,63.44,-20.27,50.0,71,40,28.86,IS,1600518023
297,tineo,43.34,-6.41,63.0,93,75,3.36,ES,1600518023
298,klaksvik,62.23,-6.59,50.0,100,90,5.82,FO,1600518024
299,dovolnoye,54.5,79.67,56.64,70,93,11.16,RU,1600518024
300,yaan,7.38,8.57,82.94,77,79,4.16,NG,1600518024
301,aksu,41.12,80.26,70.79,34,98,5.21,CN,1600518024
302,chippewa falls,44.94,-91.39,41.0,92,1,3.36,US,1600518004
303,khandagayty,50.73,92.05,47.79,60,75,2.68,RU,1600518024
304,sao joao da barra,-21.64,-41.05,75.2,73,76,16.11,BR,1600518025
305,tabas,33.6,56.92,94.12,9,0,12.8,IR,1600518025
306,inverell,-29.78,151.12,64.0,70,100,5.01,AU,1600518025
307,norfolk,42.17,-71.25,48.99,57,1,3.36,US,1600518025
308,mangrol,21.12,70.12,85.87,74,19,8.86,IN,1600518026
309,awbari,26.59,12.78,94.66,14,0,9.95,LY,1600518026
310,arlit,18.74,7.39,104.38,11,0,10.83,NE,1600518026
311,quesnel,53.0,-122.5,55.4,100,90,8.05,CA,1600517823
312,prince rupert,54.32,-130.32,53.6,100,90,2.24,CA,1600518027
313,tautira,-17.73,-149.15,75.2,78,20,3.36,PF,1600518027
314,rantepao,-2.97,119.9,68.14,82,4,1.9,ID,1600518027
315,rayagada,19.17,83.42,83.05,82,77,1.39,IN,1600518028
316,phulpur,25.55,82.1,88.5,69,38,6.38,IN,1600518028
317,marystown,47.17,-55.15,57.0,100,100,1.99,CA,1600518028
318,kastamonu,41.5,33.67,73.33,40,57,2.98,TR,1600518028
319,tomatlan,19.93,-105.25,76.23,91,68,2.24,MX,1600518028
320,mpanda,-6.37,31.04,97.77,15,53,6.04,TZ,1600518028
321,rena,61.13,11.36,62.01,60,3,1.99,NO,1600518029
322,merauke,-8.47,140.33,78.69,85,48,15.52,ID,1600518029
323,kahului,20.89,-156.47,80.6,54,1,18.34,US,1600518029
324,kyenjojo,0.63,30.62,81.25,44,46,0.51,UG,1600518029
325,rocky mountain house,52.37,-114.92,49.17,79,99,2.04,CA,1600518030
326,capao da canoa,-29.75,-50.01,67.23,79,2,10.85,BR,1600518030
327,eydhafushi,5.1,73.07,82.8,78,95,14.47,MV,1600518030
328,east london,-33.02,27.91,68.0,56,2,12.75,ZA,1600518030
329,vanimo,-2.67,141.3,79.11,82,46,4.9,PG,1600518031
330,iisalmi,63.56,27.19,46.4,81,75,20.8,FI,1600518031
331,tiksi,71.69,128.87,46.74,62,0,17.98,RU,1600518032
332,asau,46.43,26.4,70.0,30,87,8.05,RO,1600518032
333,kostomuksha,64.57,30.58,43.97,74,98,14.07,RU,1600518032
334,porto novo,6.5,2.6,80.6,74,20,5.82,BJ,1600517810
335,shevchenkove,49.7,37.17,62.6,36,1,13.42,UA,1600518032
336,murray bridge,-35.12,139.27,61.0,86,74,1.01,AU,1600518033
337,alyangula,-13.85,136.42,78.8,78,38,3.36,AU,1600518033
338,poum,-20.23,164.02,72.46,73,66,22.88,NC,1600518033
339,boyolangu,-8.12,111.89,76.28,88,58,4.29,ID,1600518034
340,victoria,22.29,114.16,82.99,88,40,8.05,HK,1600518034
341,penha,-26.77,-48.65,68.0,88,75,10.29,BR,1600518034
342,half moon bay,37.46,-122.43,62.6,93,90,3.6,US,1600518035
343,tigzirt,36.89,4.12,82.44,62,30,9.64,DZ,1600518035
344,fort nelson,58.81,-122.7,42.8,100,20,2.24,CA,1600518035
345,saint anthony,45.02,-93.22,48.0,75,1,4.7,US,1600518035
346,bimbo,4.26,18.42,82.4,74,75,9.17,CF,1600518036
347,touros,-5.2,-35.46,80.6,69,75,13.87,BR,1600518036
348,bathsheba,13.22,-59.52,84.2,79,40,8.05,BB,1600518036
349,constitucion,-35.33,-72.42,48.67,51,7,9.37,CL,1600518036
350,tafresh,34.69,50.01,84.0,13,0,1.43,IR,1600518036
351,lavrentiya,65.58,-171.0,41.4,86,100,5.68,RU,1600518036
352,lebu,-37.62,-73.65,43.97,69,0,16.53,CL,1600518037
353,berdigestyakh,62.1,126.7,43.52,76,0,2.13,RU,1600518037
354,khandyga,62.67,135.6,45.0,67,2,4.41,RU,1600517833
355,egvekinot,66.32,-179.17,31.95,96,81,4.63,RU,1600518037
356,brae,60.4,-1.35,53.6,100,75,2.24,GB,1600518037
357,phan thiet,10.93,108.1,79.97,79,100,1.68,VN,1600518037
358,vila franca do campo,37.72,-25.43,73.4,64,20,10.29,PT,1600518038
359,haines junction,60.75,-137.51,38.66,83,19,1.39,CA,1600518038
360,porto seguro,-16.45,-39.06,75.2,73,40,4.7,BR,1600518038
361,rawson,-43.3,-65.1,46.08,53,2,16.73,AR,1600518038
362,tromso,69.65,18.96,42.8,75,75,16.11,NO,1600518038
363,arona,28.1,-16.68,80.6,57,20,21.92,ES,1600518038
364,grants,35.15,-107.85,44.6,56,1,6.93,US,1600518039
365,puerto escondido,15.85,-97.07,73.4,83,90,5.82,MX,1600518039
366,kloulklubed,7.04,134.26,78.8,83,75,3.36,PW,1600518039
367,kununurra,-15.77,128.73,86.0,55,74,8.05,AU,1600517833
368,port-cartier,50.03,-66.87,42.01,75,20,5.82,CA,1600518039
369,tura,25.52,90.22,81.43,88,43,1.63,IN,1600518039
370,atar,20.52,-13.05,99.77,27,0,2.37,MR,1600518040
371,dicabisagan,17.08,122.42,81.39,80,29,4.59,PH,1600518040
372,kangalassy,62.35,129.96,46.4,52,0,6.71,RU,1600518040
373,skjervoy,70.03,20.97,44.58,72,100,30.76,NO,1600518040
374,griffith,41.53,-87.42,44.6,80,1,6.35,US,1600517860
375,coronado,32.69,-117.18,69.01,82,1,5.95,US,1600518040
376,ellisras,-23.66,27.74,94.46,13,0,6.93,ZA,1600518041
377,wilhelmshaven,53.52,8.13,66.2,42,100,13.87,DE,1600518041
378,santa cruz,-17.8,-63.17,75.2,83,31,11.41,BO,1600517919
379,cruzeiro do sul,-29.51,-51.99,64.0,100,2,2.13,BR,1600518041
380,bolobo,-2.17,16.23,78.82,72,100,3.96,CD,1600518041
381,solnechnyy,50.72,136.63,45.55,91,100,6.17,RU,1600518041
382,erzin,36.96,36.2,84.99,78,13,17.0,TR,1600518042
383,faya,18.39,42.45,86.0,9,20,16.11,SA,1600518042
384,port lincoln,-34.73,135.87,58.12,89,20,14.56,AU,1600518042
385,sangmelima,2.93,11.98,79.41,79,95,2.46,CM,1600518042
386,rongcheng,30.63,117.85,64.4,88,68,1.16,CN,1600518043
387,kroonstad,-27.65,27.23,87.01,11,0,5.01,ZA,1600518043
388,yerbogachen,61.28,108.01,50.94,67,100,4.72,RU,1600518043
389,corner brook,48.97,-57.95,50.0,65,75,4.99,CA,1600518043
390,kruisfontein,-34.0,24.73,64.71,61,63,10.0,ZA,1600518043
391,mount isa,-20.73,139.5,80.6,61,39,3.36,AU,1600518044
392,gold coast,-28.0,153.43,69.8,64,40,8.05,AU,1600518044
393,paamiut,61.99,-49.67,36.66,89,100,8.19,GL,1600518044
394,bemidji,47.47,-94.88,44.6,70,40,5.82,US,1600518005
395,andilamena,-17.02,48.58,69.55,51,68,12.3,MG,1600518044
396,issia,6.49,-6.59,85.66,60,51,1.63,CI,1600518044
397,kallithea,37.95,23.7,75.99,73,75,10.0,GR,1600518045
398,loei,17.42,101.5,77.0,94,90,4.7,TH,1600518045
399,harper,4.38,-7.72,78.89,75,91,8.08,LR,1600518045
400,morro bay,35.37,-120.85,57.0,99,0,1.01,US,1600518045
401,oxford,51.75,-1.26,70.0,52,96,16.11,GB,1600518000
402,jalingo,8.88,11.37,89.35,60,44,4.5,NG,1600518046
403,ak-dovurak,51.18,90.6,52.27,48,93,4.83,RU,1600518046
404,pallisa,1.15,33.71,88.9,40,5,3.18,UG,1600518046
405,saint-gaudens,43.08,0.67,87.01,57,90,8.05,FR,1600518046
406,weihai,37.5,122.11,68.99,54,0,5.12,CN,1600518047
407,antalya,36.77,30.72,89.6,49,20,9.17,TR,1600518047
408,terrace bay,48.78,-87.1,48.2,81,90,6.93,CA,1600518047
409,baykit,61.67,96.37,46.87,80,70,6.15,RU,1600518047
410,port-gentil,-0.72,8.78,82.4,74,90,17.22,GA,1600518048
411,marsh harbour,26.54,-77.06,82.89,74,94,11.43,BS,1600518048
412,nizhniy tsasuchey,50.52,115.13,50.32,52,0,6.6,RU,1600518048
413,laguna,38.42,-121.42,60.01,87,1,3.36,US,1600518048
414,luanda,-8.84,13.23,75.2,78,75,6.93,AO,1600518048
415,rio gallegos,-51.62,-69.22,39.2,60,74,31.09,AR,1600518048
416,tambun,-6.26,107.07,90.0,58,7,11.41,ID,1600518049
417,tucuman,-26.82,-65.22,55.4,50,10,5.82,AR,1600517961
418,kavaratti,10.57,72.64,82.09,80,100,24.47,IN,1600518049
419,porto santo,33.07,-16.34,73.4,69,20,5.82,PT,1600518049
420,mangai,-4.05,19.53,90.66,49,78,5.48,CD,1600518049
421,samarinda,-0.5,117.15,76.86,85,32,1.41,ID,1600518050
422,vila velha,-20.33,-40.29,79.0,65,20,13.87,BR,1600518050
423,san policarpo,12.18,125.51,82.81,84,61,9.15,PH,1600518050
424,kantilo,20.35,85.18,86.0,89,75,4.7,IN,1600518050
425,bodden town,19.28,-81.25,82.0,88,20,7.11,KY,1600518050
426,kamaishi,39.27,141.88,65.73,72,33,6.17,JP,1600518050
427,talnakh,69.49,88.4,48.2,87,75,8.95,RU,1600518050
428,mariinsk,56.21,87.75,49.06,91,100,11.56,RU,1600518051
429,naryan-mar,67.67,53.09,40.62,68,100,8.55,RU,1600518051
430,morgan hill,37.13,-121.65,61.0,87,40,3.36,US,1600518051
431,pinotepa nacional,16.32,-98.02,72.39,93,100,2.91,MX,1600518051
432,bayburt,40.26,40.23,68.83,43,13,11.48,TR,1600518052
433,mandalgovi,45.76,106.27,62.56,28,53,9.37,MN,1600518052
434,winslow,35.02,-110.7,64.4,42,1,6.93,US,1600518053
435,kattivakkam,13.22,80.32,84.2,74,75,4.7,IN,1600518053
436,saint-joseph,-21.37,55.62,77.0,53,24,12.75,RE,1600518053
437,balikpapan,-1.27,116.83,78.49,82,14,3.0,ID,1600517924
438,dandong,40.13,124.39,56.37,78,0,3.87,CN,1600518053
439,pindwara,24.8,73.07,85.06,71,78,4.41,IN,1600518053
440,bereda,43.27,-7.54,75.99,78,53,8.01,ES,1600518053
441,tonj,7.27,28.68,86.16,67,82,1.63,SS,1600517845
442,santa fe,-31.63,-60.7,59.0,47,41,4.0,AR,1600517849
443,beloha,-25.17,45.05,94.24,13,0,11.21,MG,1600518054
444,aswan,24.09,32.91,112.53,6,0,2.8,EG,1600518054
445,smidovich,48.6,133.82,47.91,93,100,3.53,RU,1600518054
446,chokurdakh,70.63,147.92,39.6,87,99,6.13,RU,1600518054
447,kuah,6.33,99.84,75.2,100,40,4.7,MY,1600518054
448,bolshaya rechka,51.95,104.74,46.4,100,90,17.9,RU,1600518054
449,zima,53.92,102.04,45.23,94,100,4.63,RU,1600518055
450,tazovskiy,67.47,78.7,47.37,76,59,3.29,RU,1600518055
451,tukrah,32.53,20.58,83.53,53,4,16.58,LY,1600518055
452,melfi,41.0,15.65,84.2,48,1,14.99,IT,1600518055
453,berlevag,70.86,29.09,46.04,85,92,27.27,NO,1600518055
454,yangjiang,21.85,111.97,80.06,88,100,6.11,CN,1600518055
455,oistins,13.07,-59.53,84.2,79,40,8.05,BB,1600518055
456,jiuquan,39.74,98.52,73.67,22,91,9.01,CN,1600518056
457,nalut,30.33,10.85,95.22,18,0,9.06,LY,1600518056
458,yangambi,0.81,24.43,85.24,63,73,4.29,CD,1600518056
459,chau doc,10.7,105.12,80.17,83,100,6.73,VN,1600518057
460,mayskiy,47.69,40.1,59.0,51,40,13.42,RU,1600518057
461,muros,42.78,-9.06,71.01,87,70,3.0,ES,1600518057
462,camacha,33.08,-16.33,73.4,69,20,5.82,PT,1600518057
463,tual,-5.67,132.75,81.21,84,2,6.42,ID,1600518057
464,caravelas,-17.71,-39.25,79.43,61,33,8.75,BR,1600518057
465,zyryanovsk,49.74,84.27,55.42,51,8,4.65,KZ,1600518058
466,baker city,44.77,-117.83,50.0,76,1,3.27,US,1600518058
467,khorixas,-20.37,14.97,95.11,10,0,8.1,NA,1600518058
468,sao filipe,14.9,-24.5,79.09,79,24,9.82,CV,1600518059
469,ouango,4.31,22.56,78.91,68,100,3.96,CF,1600518059
470,sonoita,31.85,-112.83,79.0,37,0,4.05,MX,1600518059
471,yenagoa,4.92,6.26,81.16,80,97,9.35,NG,1600518059
472,angoche,-16.23,39.91,82.8,53,24,9.89,MZ,1600518059
473,yatou,37.15,122.38,64.42,61,0,3.49,CN,1600518060
474,voyvozh,62.89,54.96,42.49,95,100,7.72,RU,1600518060
475,thunder bay,48.4,-89.32,48.2,93,90,2.24,CA,1600517953
476,novoshcherbinovskaya,46.48,38.65,67.15,37,11,14.12,RU,1600518060
477,luena,-11.78,19.92,87.8,33,67,9.17,AO,1600518060
478,igarka,67.47,86.58,47.16,86,100,5.3,RU,1600518060
479,zhezkazgan,47.8,67.71,71.6,24,20,13.42,KZ,1600518061
480,carauari,-4.88,-66.9,79.45,81,49,1.16,BR,1600518061
481,clinton,42.59,-82.92,37.0,100,20,4.9,US,1600518061
482,lubao,14.92,120.55,82.4,78,90,11.41,PH,1600518061
483,isla vista,34.41,-119.86,68.0,88,0,8.32,US,1600518061
484,saint-nazaire,47.28,-2.2,68.0,88,99,4.7,FR,1600518061
485,vallenar,-28.57,-70.76,60.44,58,0,2.98,CL,1600518062
486,nancha,47.13,129.27,50.52,89,75,2.17,CN,1600518062
487,cazones,20.72,-97.32,73.4,88,75,6.93,MX,1600518062
488,gao,16.64,1.64,102.58,18,4,15.57,ML,1600518062
489,great falls,47.5,-111.3,64.99,44,1,10.29,US,1600518062
490,palmer,42.16,-72.33,45.0,70,1,3.36,US,1600518063
491,henties bay,-22.12,14.28,57.99,81,8,5.01,NA,1600518063
492,boulder city,35.98,-114.83,80.6,24,1,3.36,US,1600518063
493,boralday,43.36,76.86,55.4,66,75,8.95,KZ,1600518063
494,port blair,11.67,92.75,79.93,84,100,24.99,IN,1600517826
495,shima,24.45,117.81,82.4,83,20,8.95,CN,1600518064
496,nanzhang,31.78,111.84,64.45,72,91,1.39,CN,1600518064
497,san lorenzo,-25.33,-57.53,69.8,56,17,2.24,PY,1600517958
498,bonthe,7.53,-12.51,80.8,81,53,11.77,SL,1600518064
499,sena madureira,-9.07,-68.66,81.9,60,15,2.19,BR,1600518064
500,konstantinovka,49.62,127.98,50.52,90,100,9.95,RU,1600518065
501,chara,56.91,118.26,43.74,64,5,0.98,RU,1600518065
502,chicama,-7.84,-79.15,62.65,80,84,3.74,PE,1600518065
503,kuala sungai baru,2.36,102.04,82.4,78,20,3.36,MY,1600518065
504,manggar,-2.88,108.27,82.35,83,69,12.24,ID,1600518066
505,batu berendam,2.25,102.25,82.4,78,20,3.36,MY,1600518066
506,dodola,6.98,39.18,63.68,68,61,5.1,ET,1600518066
507,matamoros,25.53,-103.25,68.0,77,5,2.68,MX,1600518066
508,mabamba,-3.6,30.5,93.04,17,76,7.18,TZ,1600518066
509,ternate,0.8,127.4,81.93,76,15,1.45,ID,1600518067
510,assiniboia,49.63,-105.98,57.27,56,16,11.63,CA,1600518067
511,ayna,-12.65,-73.92,53.6,87,90,2.24,PE,1600518067
512,peru,40.75,-86.07,41.0,100,1,3.36,US,1600517819
513,vao,-22.67,167.48,68.16,73,13,18.59,NC,1600518067
514,san mateo del mar,16.2,-95.0,79.48,77,50,13.76,MX,1600518067
515,enterprise,36.03,-115.24,81.0,22,20,4.7,US,1600518067
516,neepawa,50.23,-99.47,35.6,93,20,2.24,CA,1600517934
517,bud,39.45,-86.18,45.0,81,1,3.36,US,1600518068
518,sharjah,25.36,55.4,102.2,33,0,13.87,AE,1600518049
519,pozoblanco,38.38,-4.85,66.2,88,90,3.36,ES,1600518068
520,naron,43.52,-8.15,73.99,73,75,3.36,ES,1600518068
521,bitkine,11.98,18.21,91.45,47,83,5.44,TD,1600518068
522,denpasar,-8.65,115.22,80.6,100,20,13.87,ID,1600517870
523,roma,43.21,-75.46,35.01,86,1,2.39,US,1600518005
524,bosaso,11.28,49.18,93.2,71,34,14.99,SO,1600518068
525,rosia,45.82,24.32,69.8,43,87,4.7,RO,1600518069
526,peqin,41.05,19.75,89.6,25,75,4.7,AL,1600518069
527,beroroha,-21.67,45.17,97.97,9,0,1.61,MG,1600518069
528,pativilca,-10.7,-77.78,60.55,87,87,4.5,PE,1600518069
529,lata,40.16,-8.33,66.99,91,87,1.01,PT,1600518070
530,tvedestrand,58.62,8.93,66.2,52,89,6.93,NO,1600518070
531,san pedro,14.35,121.02,84.2,79,40,2.24,PH,1600518071
